{
    "cities": [
        {
            "name": "Lampertheim",
            "lat": 49.59972670000001,
            "lng": 8.466599,
            "id": 0,
            "image": "placeholder.jpg"
        },
        {
            "name": "Haiger",
            "lat": 50.7412021,
            "lng": 8.206550499999999,
            "id": 1,
            "image": "placeholder.jpg"
        },
        {
            "name": "Eppstein",
            "lat": 50.14529599999999,
            "lng": 8.3881459,
            "id": 2,
            "image": "placeholder.jpg"
        },
        {
            "name": "Alsfeld",
            "lat": 50.750828,
            "lng": 9.2691602,
            "id": 3,
            "image": "placeholder.jpg"
        },
        {
            "name": "Amöneburg",
            "lat": 50.797725,
            "lng": 8.9219942,
            "id": 4,
            "image": "placeholder.jpg"
        },
        {
            "name": "Solms",
            "lat": 50.5519629,
            "lng": 8.4165038,
            "id": 5,
            "image": "placeholder.jpg"
        },
        {
            "name": "Langenselbold",
            "lat": 50.1795159,
            "lng": 9.0400136,
            "id": 6,
            "image": "placeholder.jpg"
        },
        {
            "name": "Seligenstadt",
            "lat": 50.0437013,
            "lng": 8.9711343,
            "id": 7,
            "image": "placeholder.jpg"
        },
        {
            "name": "Obertshausen",
            "lat": 50.075119,
            "lng": 8.8572969,
            "id": 8,
            "image": "placeholder.jpg"
        },
        {
            "name": "Erbach",
            "lat": 49.6558833,
            "lng": 8.9961444,
            "id": 9,
            "image": "placeholder.jpg"
        },
        {
            "name": "Langen",
            "lat": 49.99146630000001,
            "lng": 8.6634007,
            "id": 10,
            "image": "placeholder.jpg"
        },
        {
            "name": "Lollar",
            "lat": 50.6470102,
            "lng": 8.7036303,
            "id": 11,
            "image": "placeholder.jpg"
        },
        {
            "name": "Hofgeismar",
            "lat": 51.4970925,
            "lng": 9.3860472,
            "id": 12,
            "image": "placeholder.jpg"
        },
        {
            "name": "Frankenberg (Eder)",
            "lat": 51.057117,
            "lng": 8.8043709,
            "id": 13,
            "image": "placeholder.jpg"
        },
        {
            "name": "Oberursel (Taunus)",
            "lat": 50.2025478,
            "lng": 8.5770309,
            "id": 14,
            "image": "placeholder.jpg"
        },
        {
            "name": "Borken (Hessen)",
            "lat": 51.0518467,
            "lng": 9.2813226,
            "id": 15,
            "image": "placeholder.jpg"
        },
        {
            "name": "Ortenberg",
            "lat": 50.3555576,
            "lng": 9.0490159,
            "id": 16,
            "image": "placeholder.jpg"
        },
        {
            "name": "Friedberg (Hessen)",
            "lat": 50.3308526,
            "lng": 8.7510993,
            "id": 17,
            "image": "placeholder.jpg"
        },
        {
            "name": "Rotenburg a.d. Fulda",
            "lat": 50.9995571,
            "lng": 9.7309388,
            "id": 18,
            "image": "placeholder.jpg"
        },
        {
            "name": "Biedenkopf",
            "lat": 50.9121507,
            "lng": 8.5301232,
            "id": 19,
            "image": "placeholder.jpg"
        },
        {
            "name": "Wiesbaden",
            "lat": 50.0782184,
            "lng": 8.239760799999999,
            "id": 20,
            "image": "placeholder.jpg"
        },
        {
            "name": "Trendelburg",
            "lat": 51.5738886,
            "lng": 9.4205694,
            "id": 21,
            "image": "placeholder.jpg"
        },
        {
            "name": "Ober-Ramstadt",
            "lat": 49.8312192,
            "lng": 8.7450072,
            "id": 22,
            "image": "placeholder.jpg"
        },
        {
            "name": "Eltville am Rhein",
            "lat": 50.0289744,
            "lng": 8.119173,
            "id": 23,
            "image": "placeholder.jpg"
        },
        {
            "name": "Staufenberg",
            "lat": 50.6604624,
            "lng": 8.7362272,
            "id": 24,
            "image": "placeholder.jpg"
        },
        {
            "name": "Erlensee",
            "lat": 50.1638866,
            "lng": 8.9840001,
            "id": 25,
            "image": "placeholder.jpg"
        },
        {
            "name": "Aßlar",
            "lat": 50.5895427,
            "lng": 8.466855899999999,
            "id": 26,
            "image": "placeholder.jpg"
        },
        {
            "name": "Hattersheim am Main",
            "lat": 50.0695728,
            "lng": 8.487226699999999,
            "id": 27,
            "image": "placeholder.jpg"
        },
        {
            "name": "Laubach",
            "lat": 50.5434524,
            "lng": 8.9867837,
            "id": 28,
            "image": "placeholder.jpg"
        },
        {
            "name": "Babenhausen",
            "lat": 49.9593613,
            "lng": 8.9588974,
            "id": 29,
            "image": "placeholder.jpg"
        },
        {
            "name": "Hadamar",
            "lat": 50.4468164,
            "lng": 8.0454623,
            "id": 30,
            "image": "placeholder.jpg"
        },
        {
            "name": "Sontra",
            "lat": 51.0680551,
            "lng": 9.935365299999999,
            "id": 31,
            "image": "placeholder.jpg"
        },
        {
            "name": "Allendorf (Lumda)",
            "lat": 50.6777768,
            "lng": 8.822951699999999,
            "id": 32,
            "image": "placeholder.jpg"
        },
        {
            "name": "Spangenberg",
            "lat": 51.1171651,
            "lng": 9.661720899999999,
            "id": 33,
            "image": "placeholder.jpg"
        },
        {
            "name": "Hatzfeld (Eder)",
            "lat": 50.9943302,
            "lng": 8.5451582,
            "id": 34,
            "image": "placeholder.jpg"
        },
        {
            "name": "Lauterbach (Hessen)",
            "lat": 50.6334203,
            "lng": 9.3960153,
            "id": 35,
            "image": "placeholder.jpg"
        },
        {
            "name": "Hanau",
            "lat": 50.1264123,
            "lng": 8.9283105,
            "id": 36,
            "image": "placeholder.jpg"
        },
        {
            "name": "Oberzent",
            "lat": 49.5675994,
            "lng": 8.9737373,
            "id": 37,
            "image": "placeholder.jpg"
        },
        {
            "name": "Stadtallendorf",
            "lat": 50.8218537,
            "lng": 9.020215100000001,
            "id": 38,
            "image": "placeholder.jpg"
        },
        {
            "name": "Eschwege",
            "lat": 51.1876662,
            "lng": 10.0397725,
            "id": 39,
            "image": "placeholder.jpg"
        },
        {
            "name": "Eschborn",
            "lat": 50.1467469,
            "lng": 8.561455500000001,
            "id": 40,
            "image": "placeholder.jpg"
        },
        {
            "name": "Tann (Rhön)",
            "lat": 50.64475909999999,
            "lng": 10.0089235,
            "id": 41,
            "image": "placeholder.jpg"
        },
        {
            "name": "Lorsch",
            "lat": 49.65392550000001,
            "lng": 8.5675071,
            "id": 42,
            "image": "placeholder.jpg"
        },
        {
            "name": "Bad Karlshafen",
            "lat": 51.6435922,
            "lng": 9.456375699999999,
            "id": 43,
            "image": "placeholder.jpg"
        },
        {
            "name": "Lorch",
            "lat": 50.0461912,
            "lng": 7.804024800000001,
            "id": 44,
            "image": "placeholder.jpg"
        },
        {
            "name": "Rödermark",
            "lat": 49.9729001,
            "lng": 8.830189599999999,
            "id": 45,
            "image": "placeholder.jpg"
        },
        {
            "name": "Bad Vilbel",
            "lat": 50.18233559999999,
            "lng": 8.739480499999999,
            "id": 46,
            "image": "placeholder.jpg"
        },
        {
            "name": "Mühlheim am Main",
            "lat": 50.12021679999999,
            "lng": 8.8382646,
            "id": 47,
            "image": "placeholder.jpg"
        },
        {
            "name": "Rosenthal",
            "lat": 50.97403509999999,
            "lng": 8.8681453,
            "id": 48,
            "image": "placeholder.jpg"
        },
        {
            "name": "Michelstadt",
            "lat": 49.6799613,
            "lng": 9.0041618,
            "id": 49,
            "image": "placeholder.jpg"
        },
        {
            "name": "Melsungen",
            "lat": 51.1276976,
            "lng": 9.549567699999999,
            "id": 50,
            "image": "placeholder.jpg"
        },
        {
            "name": "Mörfelden-Walldorf",
            "lat": 49.980722,
            "lng": 8.561487,
            "id": 51,
            "image": "placeholder.jpg"
        },
        {
            "name": "Battenberg (Eder)",
            "lat": 51.0150553,
            "lng": 8.6453788,
            "id": 52,
            "image": "placeholder.jpg"
        },
        {
            "name": "Baunatal",
            "lat": 51.2537283,
            "lng": 9.4146,
            "id": 53,
            "image": "placeholder.jpg"
        },
        {
            "name": "Immenhausen",
            "lat": 51.4286582,
            "lng": 9.4771217,
            "id": 54,
            "image": "placeholder.jpg"
        },
        {
            "name": "Gedern",
            "lat": 50.42483670000001,
            "lng": 9.1988247,
            "id": 55,
            "image": "placeholder.jpg"
        },
        {
            "name": "Romrod",
            "lat": 50.71475969999999,
            "lng": 9.2208902,
            "id": 56,
            "image": "placeholder.jpg"
        },
        {
            "name": "Breuberg",
            "lat": 49.8166161,
            "lng": 9.02339,
            "id": 57,
            "image": "placeholder.jpg"
        },
        {
            "name": "Volkmarsen",
            "lat": 51.4073825,
            "lng": 9.1181094,
            "id": 58,
            "image": "placeholder.jpg"
        },
        {
            "name": "Schlüchtern",
            "lat": 50.3493544,
            "lng": 9.5255493,
            "id": 59,
            "image": "placeholder.jpg"
        },
        {
            "name": "Wetter (Hessen)",
            "lat": 50.9025347,
            "lng": 8.7225229,
            "id": 60,
            "image": "placeholder.jpg"
        },
        {
            "name": "Kirtorf",
            "lat": 50.7688674,
            "lng": 9.1051944,
            "id": 61,
            "image": "placeholder.jpg"
        },
        {
            "name": "Neu-Anspach",
            "lat": 50.2961543,
            "lng": 8.498942099999999,
            "id": 62,
            "image": "placeholder.jpg"
        },
        {
            "name": "Weilburg",
            "lat": 50.4859255,
            "lng": 8.2722569,
            "id": 63,
            "image": "placeholder.jpg"
        },
        {
            "name": "Bürstadt",
            "lat": 49.6441767,
            "lng": 8.4617953,
            "id": 64,
            "image": "placeholder.jpg"
        },
        {
            "name": "Griesheim",
            "lat": 49.86142599999999,
            "lng": 8.567644099999999,
            "id": 65,
            "image": "placeholder.jpg"
        },
        {
            "name": "Königstein im Taunus",
            "lat": 50.17874,
            "lng": 8.47191,
            "id": 66,
            "image": "placeholder.jpg"
        },
        {
            "name": "Neustadt (Hessen)",
            "lat": 50.8525599,
            "lng": 9.115319999999999,
            "id": 67,
            "image": "placeholder.jpg"
        },
        {
            "name": "Gemünden (Wohra)",
            "lat": 50.9727111,
            "lng": 8.969381,
            "id": 68,
            "image": "placeholder.jpg"
        },
        {
            "name": "Vellmar",
            "lat": 51.3576785,
            "lng": 9.4651587,
            "id": 69,
            "image": "placeholder.jpg"
        },
        {
            "name": "Marburg",
            "lat": 50.8018843,
            "lng": 8.7657677,
            "id": 70,
            "image": "placeholder.jpg"
        },
        {
            "name": "Nidda",
            "lat": 50.4127451,
            "lng": 9.007875799999999,
            "id": 71,
            "image": "placeholder.jpg"
        },
        {
            "name": "Gelnhausen",
            "lat": 50.2045664,
            "lng": 9.1863725,
            "id": 72,
            "image": "placeholder.jpg"
        },
        {
            "name": "Bad Sooden-Allendorf",
            "lat": 51.2703403,
            "lng": 9.980095700000001,
            "id": 73,
            "image": "placeholder.jpg"
        },
        {
            "name": "Viernheim",
            "lat": 49.5412437,
            "lng": 8.5784877,
            "id": 74,
            "image": "placeholder.jpg"
        },
        {
            "name": "Idstein",
            "lat": 50.2171726,
            "lng": 8.265894,
            "id": 75,
            "image": "placeholder.jpg"
        },
        {
            "name": "Korbach",
            "lat": 51.2774069,
            "lng": 8.8709876,
            "id": 76,
            "image": "placeholder.jpg"
        },
        {
            "name": "Gießen",
            "lat": 50.5840512,
            "lng": 8.678403099999999,
            "id": 77,
            "image": "placeholder.jpg"
        },
        {
            "name": "Heppenheim (Bergstraße)",
            "lat": 49.6430169,
            "lng": 8.6675419,
            "id": 78,
            "image": "placeholder.jpg"
        },
        {
            "name": "Neckarsteinach",
            "lat": 49.4054511,
            "lng": 8.841741200000001,
            "id": 79,
            "image": "placeholder.jpg"
        },
        {
            "name": "Oestrich-Winkel",
            "lat": 50.0030906,
            "lng": 8.0152247,
            "id": 80,
            "image": "placeholder.jpg"
        },
        {
            "name": "Wächtersbach",
            "lat": 50.2550222,
            "lng": 9.2918865,
            "id": 81,
            "image": "placeholder.jpg"
        },
        {
            "name": "Wanfried",
            "lat": 51.1815,
            "lng": 10.173811,
            "id": 82,
            "image": "placeholder.jpg"
        },
        {
            "name": "Bad Homburg v.d. Höhe",
            "lat": 50.2284412,
            "lng": 8.617754999999999,
            "id": 83,
            "image": "placeholder.jpg"
        },
        {
            "name": "Offenbach am Main",
            "lat": 50.09563620000001,
            "lng": 8.776084299999999,
            "id": 84,
            "image": "placeholder.jpg"
        },
        {
            "name": "Pohlheim",
            "lat": 50.50832150000001,
            "lng": 8.7246052,
            "id": 85,
            "image": "placeholder.jpg"
        },
        {
            "name": "Heusenstamm",
            "lat": 50.0554864,
            "lng": 8.7999301,
            "id": 86,
            "image": "placeholder.jpg"
        },
        {
            "name": "Runkel",
            "lat": 50.4053547,
            "lng": 8.153041199999999,
            "id": 87,
            "image": "placeholder.jpg"
        },
        {
            "name": "Karben",
            "lat": 50.2303566,
            "lng": 8.7736533,
            "id": 88,
            "image": "placeholder.jpg"
        },
        {
            "name": "Schwalbach am Taunus",
            "lat": 50.1541966,
            "lng": 8.5288048,
            "id": 89,
            "image": "placeholder.jpg"
        },
        {
            "name": "Leun",
            "lat": 50.5454362,
            "lng": 8.3620748,
            "id": 90,
            "image": "placeholder.jpg"
        },
        {
            "name": "Gernsheim",
            "lat": 49.7574082,
            "lng": 8.4885231,
            "id": 91,
            "image": "placeholder.jpg"
        },
        {
            "name": "Linden",
            "lat": 50.5268808,
            "lng": 8.654294799999999,
            "id": 92,
            "image": "placeholder.jpg"
        },
        {
            "name": "Limburg a.d. Lahn",
            "lat": 50.3986005,
            "lng": 8.0795783,
            "id": 93,
            "image": "placeholder.jpg"
        },
        {
            "name": "Großalmerode",
            "lat": 51.2587473,
            "lng": 9.786006,
            "id": 94,
            "image": "placeholder.jpg"
        },
        {
            "name": "Kelkheim (Taunus)",
            "lat": 50.13489000000001,
            "lng": 8.45121,
            "id": 95,
            "image": "placeholder.jpg"
        },
        {
            "name": "Hirschhorn (Neckar)",
            "lat": 49.4466583,
            "lng": 8.8971213,
            "id": 96,
            "image": "placeholder.jpg"
        },
        {
            "name": "Frankenau",
            "lat": 51.092755,
            "lng": 8.933304399999999,
            "id": 97,
            "image": "placeholder.jpg"
        },
        {
            "name": "Wetzlar",
            "lat": 50.5635273,
            "lng": 8.5002611,
            "id": 98,
            "image": "placeholder.jpg"
        },
        {
            "name": "Bensheim",
            "lat": 49.6861354,
            "lng": 8.618729600000002,
            "id": 99,
            "image": "placeholder.jpg"
        },
        {
            "name": "Neukirchen",
            "lat": 50.8691184,
            "lng": 9.3437631,
            "id": 100,
            "image": "placeholder.jpg"
        },
        {
            "name": "Schotten",
            "lat": 50.5019846,
            "lng": 9.1234184,
            "id": 101,
            "image": "placeholder.jpg"
        },
        {
            "name": "Florstadt",
            "lat": 50.3203904,
            "lng": 8.8665959,
            "id": 102,
            "image": "placeholder.jpg"
        },
        {
            "name": "Rosbach v.d. Höhe",
            "lat": 50.3007398,
            "lng": 8.692732699999999,
            "id": 103,
            "image": "placeholder.jpg"
        },
        {
            "name": "Ulrichstein",
            "lat": 50.5760021,
            "lng": 9.1929424,
            "id": 104,
            "image": "placeholder.jpg"
        },
        {
            "name": "Lich",
            "lat": 50.518161,
            "lng": 8.816677499999999,
            "id": 105,
            "image": "placeholder.jpg"
        },
        {
            "name": "Kelsterbach",
            "lat": 50.0597078,
            "lng": 8.5297786,
            "id": 106,
            "image": "placeholder.jpg"
        },
        {
            "name": "Rauschenberg",
            "lat": 50.8835784,
            "lng": 8.9147455,
            "id": 107,
            "image": "placeholder.jpg"
        },
        {
            "name": "Büdingen",
            "lat": 50.2862963,
            "lng": 9.111383799999999,
            "id": 108,
            "image": "placeholder.jpg"
        },
        {
            "name": "Bad Arolsen",
            "lat": 51.3798641,
            "lng": 9.012550599999999,
            "id": 109,
            "image": "placeholder.jpg"
        },
        {
            "name": "Raunheim",
            "lat": 50.0104109,
            "lng": 8.4529177,
            "id": 110,
            "image": "placeholder.jpg"
        },
        {
            "name": "Taunusstein",
            "lat": 50.1396151,
            "lng": 8.149593900000001,
            "id": 111,
            "image": "placeholder.jpg"
        },
        {
            "name": "Herborn",
            "lat": 50.6784088,
            "lng": 8.2997096,
            "id": 112,
            "image": "placeholder.jpg"
        },
        {
            "name": "Frankfurt am Main",
            "lat": 50.1109221,
            "lng": 8.6821267,
            "id": 113,
            "image": "placeholder.jpg"
        },
        {
            "name": "Flörsheim am Main",
            "lat": 50.01239959999999,
            "lng": 8.4217125,
            "id": 114,
            "image": "placeholder.jpg"
        },
        {
            "name": "Bad König",
            "lat": 49.7436186,
            "lng": 9.0064931,
            "id": 115,
            "image": "placeholder.jpg"
        },
        {
            "name": "Schwarzenborn",
            "lat": 50.9114395,
            "lng": 9.4473376,
            "id": 116,
            "image": "placeholder.jpg"
        },
        {
            "name": "Darmstadt",
            "lat": 49.8728253,
            "lng": 8.6511929,
            "id": 117,
            "image": "placeholder.jpg"
        },
        {
            "name": "Lichtenau",
            "lat": 51.1982109,
            "lng": 9.719786599999999,
            "id": 118,
            "image": "placeholder.jpg"
        },
        {
            "name": "Herbstein",
            "lat": 50.5616639,
            "lng": 9.3476778,
            "id": 119,
            "image": "placeholder.jpg"
        },
        {
            "name": "Bad Wildungen",
            "lat": 51.1178991,
            "lng": 9.1219134,
            "id": 120,
            "image": "placeholder.jpg"
        },
        {
            "name": "Naumburg",
            "lat": 51.2482221,
            "lng": 9.167672099999999,
            "id": 121,
            "image": "placeholder.jpg"
        },
        {
            "name": "Usingen",
            "lat": 50.3353122,
            "lng": 8.5320064,
            "id": 122,
            "image": "placeholder.jpg"
        },
        {
            "name": "Waldkappel",
            "lat": 51.14568269999999,
            "lng": 9.877246699999999,
            "id": 123,
            "image": "placeholder.jpg"
        },
        {
            "name": "Homberg (Efze)",
            "lat": 51.0314351,
            "lng": 9.4127239,
            "id": 124,
            "image": "placeholder.jpg"
        },
        {
            "name": "Steinau an der Straße",
            "lat": 50.3166763,
            "lng": 9.4512418,
            "id": 125,
            "image": "placeholder.jpg"
        },
        {
            "name": "Reinheim",
            "lat": 49.8285844,
            "lng": 8.831097399999999,
            "id": 126,
            "image": "placeholder.jpg"
        },
        {
            "name": "Gladenbach",
            "lat": 50.7647016,
            "lng": 8.5778368,
            "id": 127,
            "image": "placeholder.jpg"
        },
        {
            "name": "Bad Camberg",
            "lat": 50.2982625,
            "lng": 8.265035899999999,
            "id": 128,
            "image": "placeholder.jpg"
        },
        {
            "name": "Hünfeld",
            "lat": 50.6726672,
            "lng": 9.769045499999999,
            "id": 129,
            "image": "placeholder.jpg"
        },
        {
            "name": "Bad Soden am Taunus",
            "lat": 50.1461462,
            "lng": 8.498569,
            "id": 130,
            "image": "placeholder.jpg"
        },
        {
            "name": "Hochheim am Main",
            "lat": 50.0147576,
            "lng": 8.3558664,
            "id": 131,
            "image": "placeholder.jpg"
        },
        {
            "name": "Rüdesheim am Rhein",
            "lat": 49.98214429999999,
            "lng": 7.9301124,
            "id": 132,
            "image": "placeholder.jpg"
        },
        {
            "name": "Schlitz",
            "lat": 50.6758597,
            "lng": 9.5627324,
            "id": 133,
            "image": "placeholder.jpg"
        },
        {
            "name": "Hungen",
            "lat": 50.4754531,
            "lng": 8.8990998,
            "id": 134,
            "image": "placeholder.jpg"
        },
        {
            "name": "Neu-Isenburg",
            "lat": 50.0522076,
            "lng": 8.6952638,
            "id": 135,
            "image": "placeholder.jpg"
        },
        {
            "name": "Dillenburg",
            "lat": 50.7452841,
            "lng": 8.2807631,
            "id": 136,
            "image": "placeholder.jpg"
        },
        {
            "name": "Dietzenbach",
            "lat": 50.0172906,
            "lng": 8.7869609,
            "id": 137,
            "image": "placeholder.jpg"
        },
        {
            "name": "Geisenheim",
            "lat": 49.9864335,
            "lng": 7.966694199999999,
            "id": 138,
            "image": "placeholder.jpg"
        },
        {
            "name": "Bad Nauheim",
            "lat": 50.3672668,
            "lng": 8.739391399999999,
            "id": 139,
            "image": "placeholder.jpg"
        },
        {
            "name": "Friedrichsdorf",
            "lat": 50.2538496,
            "lng": 8.6417409,
            "id": 140,
            "image": "placeholder.jpg"
        },
        {
            "name": "Butzbach",
            "lat": 50.43503579999999,
            "lng": 8.6688418,
            "id": 141,
            "image": "placeholder.jpg"
        },
        {
            "name": "Bruchköbel",
            "lat": 50.1824581,
            "lng": 8.9231185,
            "id": 142,
            "image": "placeholder.jpg"
        },
        {
            "name": "Waldeck",
            "lat": 51.2076269,
            "lng": 9.0646516,
            "id": 143,
            "image": "placeholder.jpg"
        },
        {
            "name": "Grebenstein",
            "lat": 51.44721149999999,
            "lng": 9.4102637,
            "id": 144,
            "image": "placeholder.jpg"
        },
        {
            "name": "Steinbach (Taunus)",
            "lat": 50.1685185,
            "lng": 8.5727835,
            "id": 145,
            "image": "placeholder.jpg"
        },
        {
            "name": "Groß-Gerau",
            "lat": 49.9203655,
            "lng": 8.4847038,
            "id": 146,
            "image": "placeholder.jpg"
        },
        {
            "name": "Fritzlar",
            "lat": 51.1330809,
            "lng": 9.2742641,
            "id": 147,
            "image": "placeholder.jpg"
        },
        {
            "name": "Kronberg im Taunus",
            "lat": 50.1826861,
            "lng": 8.5201703,
            "id": 148,
            "image": "placeholder.jpg"
        },
        {
            "name": "Niddatal",
            "lat": 50.29858970000001,
            "lng": 8.813624599999999,
            "id": 149,
            "image": "placeholder.jpg"
        },
        {
            "name": "Bad Hersfeld",
            "lat": 50.8701345,
            "lng": 9.7019675,
            "id": 150,
            "image": "placeholder.jpg"
        },
        {
            "name": "Lindenfels",
            "lat": 49.68315519999999,
            "lng": 8.779638499999999,
            "id": 151,
            "image": "placeholder.jpg"
        },
        {
            "name": "Felsberg",
            "lat": 51.1363534,
            "lng": 9.419181799999999,
            "id": 152,
            "image": "placeholder.jpg"
        },
        {
            "name": "Heringen (Werra)",
            "lat": 50.8944039,
            "lng": 9.998392899999999,
            "id": 153,
            "image": "placeholder.jpg"
        },
        {
            "name": "Liebenau",
            "lat": 51.4973299,
            "lng": 9.281494499999999,
            "id": 154,
            "image": "placeholder.jpg"
        },
        {
            "name": "Hessisch",
            "lat": 50.6520515,
            "lng": 9.162437599999999,
            "id": 155,
            "image": "placeholder.jpg"
        },
        {
            "name": "Riedstadt",
            "lat": 49.8431788,
            "lng": 8.4671693,
            "id": 156,
            "image": "placeholder.jpg"
        },
        {
            "name": "Maintal",
            "lat": 50.14720579999999,
            "lng": 8.824969099999999,
            "id": 157,
            "image": "placeholder.jpg"
        },
        {
            "name": "Homberg (Ohm)",
            "lat": 50.7308975,
            "lng": 9.000708,
            "id": 158,
            "image": "placeholder.jpg"
        },
        {
            "name": "Bad Soden-Salmünster",
            "lat": 50.2741053,
            "lng": 9.3721825,
            "id": 159,
            "image": "placeholder.jpg"
        },
        {
            "name": "Rodgau",
            "lat": 50.0012757,
            "lng": 8.8769235,
            "id": 160,
            "image": "placeholder.jpg"
        },
        {
            "name": "Fulda",
            "lat": 50.5558095,
            "lng": 9.6808449,
            "id": 161,
            "image": "placeholder.jpg"
        },
        {
            "name": "Hofheim am Taunus",
            "lat": 50.0841829,
            "lng": 8.4432295,
            "id": 162,
            "image": "placeholder.jpg"
        },
        {
            "name": "Reichelsheim (Wetterau)",
            "lat": 50.358697,
            "lng": 8.873952100000002,
            "id": 163,
            "image": "placeholder.jpg"
        },
        {
            "name": "Braunfels",
            "lat": 50.5169338,
            "lng": 8.3908989,
            "id": 164,
            "image": "placeholder.jpg"
        },
        {
            "name": "Gersfeld (Rhön)",
            "lat": 50.4495079,
            "lng": 9.9196373,
            "id": 165,
            "image": "placeholder.jpg"
        },
        {
            "name": "Bad Schwalbach",
            "lat": 50.1402994,
            "lng": 8.0695976,
            "id": 166,
            "image": "placeholder.jpg"
        },
        {
            "name": "Lichtenfels",
            "lat": 51.1736636,
            "lng": 8.7983124,
            "id": 167,
            "image": "placeholder.jpg"
        },
        {
            "name": "Bad Orb",
            "lat": 50.2277906,
            "lng": 9.3483916,
            "id": 168,
            "image": "placeholder.jpg"
        },
        {
            "name": "Kassel",
            "lat": 51.3127114,
            "lng": 9.4797461,
            "id": 169,
            "image": "placeholder.jpg"
        },
        {
            "name": "Rüsselsheim",
            "lat": 49.9887497,
            "lng": 8.4216976,
            "id": 170,
            "image": "placeholder.jpg"
        },
        {
            "name": "Gudensberg",
            "lat": 51.1770718,
            "lng": 9.3682585,
            "id": 171,
            "image": "placeholder.jpg"
        },
        {
            "name": "Zierenberg",
            "lat": 51.3678209,
            "lng": 9.3014482,
            "id": 172,
            "image": "placeholder.jpg"
        },
        {
            "name": "Wolfhagen",
            "lat": 51.3264673,
            "lng": 9.1710827,
            "id": 173,
            "image": "placeholder.jpg"
        },
        {
            "name": "Niedenstein",
            "lat": 51.234099,
            "lng": 9.3136558,
            "id": 174,
            "image": "placeholder.jpg"
        },
        {
            "name": "Dieburg",
            "lat": 49.9010547,
            "lng": 8.8444959,
            "id": 175,
            "image": "placeholder.jpg"
        },
        {
            "name": "Groß-Umstadt",
            "lat": 49.8701538,
            "lng": 8.9263447,
            "id": 176,
            "image": "placeholder.jpg"
        },
        {
            "name": "Schwalmstadt",
            "lat": 50.92160089999999,
            "lng": 9.255187099999999,
            "id": 177,
            "image": "placeholder.jpg"
        },
        {
            "name": "Groß-Bieberau",
            "lat": 49.8004763,
            "lng": 8.8237674,
            "id": 178,
            "image": "placeholder.jpg"
        },
        {
            "name": "Witzenhausen",
            "lat": 51.33996819999999,
            "lng": 9.8555643,
            "id": 179,
            "image": "placeholder.jpg"
        },
        {
            "name": "Münzenberg",
            "lat": 50.4553073,
            "lng": 8.7758205,
            "id": 180,
            "image": "placeholder.jpg"
        },
        {
            "name": "Bebra",
            "lat": 50.9688842,
            "lng": 9.797341699999999,
            "id": 181,
            "image": "placeholder.jpg"
        },
        {
            "name": "Pfungstadt",
            "lat": 49.8028671,
            "lng": 8.603536199999999,
            "id": 182,
            "image": "placeholder.jpg"
        },
        {
            "name": "Nidderau",
            "lat": 50.2465175,
            "lng": 8.8830827,
            "id": 183,
            "image": "placeholder.jpg"
        },
        {
            "name": "Diemelstadt",
            "lat": 51.4778087,
            "lng": 9.010057399999999,
            "id": 184,
            "image": "placeholder.jpg"
        },
        {
            "name": "Zwingenberg",
            "lat": 49.7250007,
            "lng": 8.6109755,
            "id": 185,
            "image": "placeholder.jpg"
        },
        {
            "name": "Dreieich",
            "lat": 50.0294877,
            "lng": 8.6949231,
            "id": 186,
            "image": "placeholder.jpg"
        },
        {
            "name": "Grünberg",
            "lat": 50.5926747,
            "lng": 8.958271800000002,
            "id": 187,
            "image": "placeholder.jpg"
        },
        {
            "name": "Grebenau",
            "lat": 50.74269959999999,
            "lng": 9.4735557,
            "id": 188,
            "image": "placeholder.jpg"
        },
        {
            "name": "Weiterstadt",
            "lat": 49.8991611,
            "lng": 8.5991073,
            "id": 189,
            "image": "placeholder.jpg"
        },
        {
            "name": "Ginsheim-Gustavsburg",
            "lat": 49.9930544,
            "lng": 8.3220536,
            "id": 190,
            "image": "placeholder.jpg"
        },
        {
            "name": "Kirchhain",
            "lat": 50.8206953,
            "lng": 8.9212901,
            "id": 191,
            "image": "placeholder.jpg"
        }
    ]
}